{"type":"FeatureCollection", "features": [
{"type":"Feature","geometry":{"type":"Point","coordinates":[-4.5450823,36.8282267,0]},"properties":{"nombre":"Albergue municipal de Almogía"}},
{"type":"Feature","geometry":{"type":"Point","coordinates":[-4.5309585,36.9326666,0]},"properties":{"nombre":"Albergue municipal de peregrinos de Villanueva de la Concepción"}},
{"type":"Feature","geometry":{"type":"Point","coordinates":[-4.5565083,37.0199779,0]},"properties":{"nombre":"Albergue parroquial Iglesia de Santiago"}},
{"type":"Feature","geometry":{"type":"Point","coordinates":[-4.4520622,37.1871791,0]},"properties":{"nombre":"Albergue municipal de Villanueva de Algaidas"}},
{"type":"Feature","geometry":{"type":"Point","coordinates":[-4.4902423,37.2359252,0]},"properties":{"nombre":"Albergue municipal de peregrinos de Cuevas Bajas"}},
{"type":"Feature","geometry":{"type":"Point","coordinates":[-4.4934183629,37.2732565539,0]},"properties":{"nombre":"Albergue municipal de peregrinos de Encinas Reales"}},
{"type":"Feature","geometry":{"type":"Point","coordinates":[-4.3596914,37.5541219,0]},"properties":{"nombre":"Albergue parroquial Doña Mencía"}},
{"type":"Feature","geometry":{"type":"Point","coordinates":[-4.32442703592105,37.613342250012,0]},"properties":{"nombre":"Alojamiento rural Marie Chantal"}},
{"type":"Feature","geometry":{"type":"Point","coordinates":[-4.3298113,37.6130181,0]},"properties":{"nombre":"Albergue rural Ruta del Califato"}},
{"type":"Feature","geometry":{"type":"Point","coordinates":[-4.4841623,37.6908236,0]},"properties":{"nombre":"Albergue municipal de peregrinos de Castro del Río"}},
{"type":"Feature","geometry":{"type":"Point","coordinates":[-4.5572487,37.6772857,0]},"properties":{"nombre":"Albergue municipal de peregrinos de Espejo"}},
{"type":"Feature","geometry":{"type":"Point","coordinates":[-4.7840199,37.8791096,0]},"properties":{"nombre":"Albergue Inturjoven"}},
{"type":"Feature","geometry":{"type":"Point","coordinates":[-4.9049142,38.1391829,0]},"properties":{"nombre":"Albergue municipal de peregrinos de Villaharta"}},
{"type":"Feature","geometry":{"type":"Point","coordinates":[-4.9741544,38.3856276,0]},"properties":{"nombre":"Albergue municipal de peregrinos de Alcaracejos–Casa del peregrino"}},
{"type":"Feature","geometry":{"type":"Point","coordinates":[-4.99844696503,38.394787587359,0]},"properties":{"nombre":"Albergue municipal Casa del peregrino"}},
{"type":"Feature","geometry":{"type":"Point","coordinates":[-5.1500862,38.5000732,0]},"properties":{"nombre":"Albergue municipal de peregrinos de Hinojosa del Duque"}},
{"type":"Feature","geometry":{"type":"Point","coordinates":[-5.4506554,38.5881721,0]},"properties":{"nombre":"Albergue municipal de peregrinos de Monterrubio de la Serena"}},
{"type":"Feature","geometry":{"type":"Point","coordinates":[-5.5513866,38.7209238,0]},"properties":{"nombre":"Albergue municipal de peregrinos de Castuera"}},
{"type":"Feature","geometry":{"type":"Point","coordinates":[-5.6438341,38.8537201,0]},"properties":{"nombre":"Albergue turístico La estación de Campanario"}},
{"type":"Feature","geometry":{"type":"Point","coordinates":[-5.7985568,38.9186965,0]},"properties":{"nombre":"Albergue municipal de peregrinos de La Haba"}},
{"type":"Feature","geometry":{"type":"Point","coordinates":[-6.1136117,38.989533,0]},"properties":{"nombre":"Albergue municipal de peregrinos de Torrefresneda"}},
{"type":"Feature","geometry":{"type":"Point","coordinates":[-6.2516965,38.9543959,0]},"properties":{"nombre":"Albergue turístico Cornalvo"}},
{"type":"Feature","geometry":{"type":"Point","coordinates":[-6.3552082,38.9201901,0]},"properties":{"nombre":"Albergue Molino de Pancaliente"}},
{"type":"Feature","geometry":{"type":"Point","coordinates":[-6.3397833,39.0238281,0]},"properties":{"nombre":"Albergue municipal de El Carrascalejo"}},
{"type":"Feature","geometry":{"type":"Point","coordinates":[-6.3322322,39.0428645,0]},"properties":{"nombre":"Albergue municipal San Andrés"}},
{"type":"Feature","geometry":{"type":"Point","coordinates":[-6.3355964,39.0450265,0]},"properties":{"nombre":"Albergue peregrinos Río Aljucén"}},
{"type":"Feature","geometry":{"type":"Point","coordinates":[-6.2363196,39.1789891,0]},"properties":{"nombre":"Casa peregrina"}},
{"type":"Feature","geometry":{"type":"Point","coordinates":[-6.237824,39.181437,0]},"properties":{"nombre":"Albergue Casa de la Misericordia–Casa de acogida de los Esclavos de María y de los Pobres"}},
{"type":"Feature","geometry":{"type":"Point","coordinates":[-6.2364272,39.1821451,0]},"properties":{"nombre":"Albergue Jantien Henriët"}},
{"type":"Feature","geometry":{"type":"Point","coordinates":[-6.3226479,39.2866552,0]},"properties":{"nombre":"Albergue milenario del Verdinal"}},
{"type":"Feature","geometry":{"type":"Point","coordinates":[-6.3489152,39.3758631,0]},"properties":{"nombre":"Albergue municipal de peregrinos de Valdesalor"}},
{"type":"Feature","geometry":{"type":"Point","coordinates":[-6.372412,39.477235,0]},"properties":{"nombre":"Albergue turístico Las Veletas"}},
{"type":"Feature","geometry":{"type":"Point","coordinates":[-6.417271,39.561395,0]},"properties":{"nombre":"Albergue municipal de Casar de Cáceres"}},
{"type":"Feature","geometry":{"type":"Point","coordinates":[-6.453987,39.729905,0]},"properties":{"nombre":"Albergue turístico de la Vía de la Plata Embalse de Alcántara"}},
{"type":"Feature","geometry":{"type":"Point","coordinates":[-6.3513208,39.8395106,0]},"properties":{"nombre":"Albergue municipal de peregrinos de Grimaldo"}},
{"type":"Feature","geometry":{"type":"Point","coordinates":[-6.3498356,39.8390292,0]},"properties":{"nombre":"La Posada de Grimaldo"}},
{"type":"Feature","geometry":{"type":"Point","coordinates":[-6.2676037,39.9743393,0]},"properties":{"nombre":"Albergue turístico de Galisteo"}},
{"type":"Feature","geometry":{"type":"Point","coordinates":[-6.2496595,39.9679565,0]},"properties":{"nombre":"Albergue Vía de la Plata, San Gil"}},
{"type":"Feature","geometry":{"type":"Point","coordinates":[-6.2161482,40.0487753,0]},"properties":{"nombre":"Albergue Señora Elena"}},
{"type":"Feature","geometry":{"type":"Point","coordinates":[-6.0896041,40.1115736,0]},"properties":{"nombre":"Albergue turístico San Blas"}},
{"type":"Feature","geometry":{"type":"Point","coordinates":[-6.0876463,40.1125534,0]},"properties":{"nombre":"Albergue Vía Caparra"}},
{"type":"Feature","geometry":{"type":"Point","coordinates":[-5.9281843,40.2594374,0]},"properties":{"nombre":"Albergue La casa de mi abuela"}},
{"type":"Feature","geometry":{"type":"Point","coordinates":[-5.8594197,40.3168168,0]},"properties":{"nombre":"Albergue de peregrinos Vía de la Plata"}},
{"type":"Feature","geometry":{"type":"Point","coordinates":[-5.8594736,40.3199681,0]},"properties":{"nombre":"Hostal-habitaciones El Sendero"}},
{"type":"Feature","geometry":{"type":"Point","coordinates":[-5.8488139,40.3431872,0]},"properties":{"nombre":"Albergue municipal de peregrinos de Puerto Béjar"}},
{"type":"Feature","geometry":{"type":"Point","coordinates":[-5.8186435,40.4107401,0]},"properties":{"nombre":"Albergue rural Alba y Soraya"}},
{"type":"Feature","geometry":{"type":"Point","coordinates":[-5.7840187,40.48082,0]},"properties":{"nombre":"Albergue Nenúfar"}},
{"type":"Feature","geometry":{"type":"Point","coordinates":[-5.781889,40.481331,0]},"properties":{"nombre":"Albergue Santiago Apóstol"}},
{"type":"Feature","geometry":{"type":"Point","coordinates":[-5.73132,40.564918,0]},"properties":{"nombre":"Albergue parroquial de Fuenterroble de Salvatierra"}},
{"type":"Feature","geometry":{"type":"Point","coordinates":[-5.7399944,40.7899241,0]},"properties":{"nombre":"Albergue Mutatio Elena"}},
{"type":"Feature","geometry":{"type":"Point","coordinates":[-5.7387368,40.7892689,0]},"properties":{"nombre":"Albergue Mari Carmen"}},
{"type":"Feature","geometry":{"type":"Point","coordinates":[-5.7375166,40.7897906,0]},"properties":{"nombre":"Albergue turístico El Miliario"}},
{"type":"Feature","geometry":{"type":"Point","coordinates":[-5.698329,40.807241,0]},"properties":{"nombre":"Albergue municipal de Morille"}},
{"type":"Feature","geometry":{"type":"Point","coordinates":[-5.6653664,40.9596059,0]},"properties":{"nombre":"Albergue municipal Casa la Calera"}},
{"type":"Feature","geometry":{"type":"Point","coordinates":[-5.7053085,41.0879699,0]},"properties":{"nombre":"Albergue de peregrinos de Calzada de Valdunciel"}},
{"type":"Feature","geometry":{"type":"Point","coordinates":[-5.7096267,41.2535942,0]},"properties":{"nombre":"Albergue turístico Torre de Sabre"}},
{"type":"Feature","geometry":{"type":"Point","coordinates":[-5.7482683,41.5012199,0]},"properties":{"nombre":"Albergue municipal de peregrinos Ciudad de Zamora"}},
{"type":"Feature","geometry":{"type":"Point","coordinates":[-5.8006096,41.6363494,0]},"properties":{"nombre":"Albergue El Asturiano"}},
{"type":"Feature","geometry":{"type":"Point","coordinates":[-5.802617,41.6423571,0]},"properties":{"nombre":"Albergue de peregrinos de Montamarta"}},
{"type":"Feature","geometry":{"type":"Point","coordinates":[-5.8063151,41.6474366,0]},"properties":{"nombre":"Casa rural, Montamarta"}},
{"type":"Feature","geometry":{"type":"Point","coordinates":[-5.8076969,41.6495602,0]},"properties":{"nombre":"Vivienda turística Montamarta 1 y 2"}},
{"type":"Feature","geometry":{"type":"Point","coordinates":[-5.778993,41.733965,0]},"properties":{"nombre":"Albergue de peregrinos 'Castrotorafe'"}},
{"type":"Feature","geometry":{"type":"Point","coordinates":[-5.764699,41.760538,0]},"properties":{"nombre":"Albergue de peregrinos de Riego del Camino"}},
{"type":"Feature","geometry":{"type":"Point","coordinates":[-5.73944,41.809155,0]},"properties":{"nombre":"Albergue municipal de peregrinos de Granja de Moreruela"}},
{"type":"Feature","geometry":{"type":"Point","coordinates":[-5.7419711,41.8099861,0]},"properties":{"nombre":"La Casa del Tío Quico"}},
{"type":"Feature","geometry":{"type":"Point","coordinates":[-5.9725975,41.9945248,0]},"properties":{"nombre":"Albergue de peregrinos de Santa Marta de Tera"}},
{"type":"Feature","geometry":{"type":"Point","coordinates":[-6.0829218,41.9771476,0]},"properties":{"nombre":"Albergue de peregrinos de Calzadilla de Tera"}},
{"type":"Feature","geometry":{"type":"Point","coordinates":[-6.1044109,41.985004,0]},"properties":{"nombre":"Albergue La Trucha"}},
{"type":"Feature","geometry":{"type":"Point","coordinates":[-6.1072466,41.9822401,0]},"properties":{"nombre":"Casa Julia"}},
{"type":"Feature","geometry":{"type":"Point","coordinates":[-6.1741889,41.9799295,0]},"properties":{"nombre":"Albergue de peregrinos Rehobooth"}},
{"type":"Feature","geometry":{"type":"Point","coordinates":[-6.2297339,42.0063732,0]},"properties":{"nombre":"Albergue de peregrinos Virgen de la Carballeda"}},
{"type":"Feature","geometry":{"type":"Point","coordinates":[-6.3261533,42.0222917,0]},"properties":{"nombre":"Hostal La Ruta"}},
{"type":"Feature","geometry":{"type":"Point","coordinates":[-6.3337987,42.022904,0]},"properties":{"nombre":"Albergue de Mombuey"}},
{"type":"Feature","geometry":{"type":"Point","coordinates":[-6.4885919,42.054097,0]},"properties":{"nombre":"Albergue de peregrinos de Nuestra Señora de la Asunción"}},
{"type":"Feature","geometry":{"type":"Point","coordinates":[-6.5243074,42.0595014,0]},"properties":{"nombre":"Viviendas turísticas Carrero"}},
{"type":"Feature","geometry":{"type":"Point","coordinates":[-6.7473652,42.0310087,0]},"properties":{"nombre":"Albergue municipal de Requejo"}},
{"type":"Feature","geometry":{"type":"Point","coordinates":[-6.7475317,42.0304334,0]},"properties":{"nombre":"Albergue Casa Cerviño"}},
{"type":"Feature","geometry":{"type":"Point","coordinates":[-6.9038025,42.0347773,0]},"properties":{"nombre":"Albergue de Lubián"}},
{"type":"Feature","geometry":{"type":"Point","coordinates":[-7.1430341,42.0605244,0]},"properties":{"nombre":"Casa da Viúva"}},
{"type":"Feature","geometry":{"type":"Point","coordinates":[-7.3340932,42.0677635,0]},"properties":{"nombre":"Albergue da Rosario"}},
{"type":"Feature","geometry":{"type":"Point","coordinates":[-7.407644607821,42.061944363962,0]},"properties":{"nombre":"Refugio, punto de apoyo al peregrino Ultreia As Eiras"}},
{"type":"Feature","geometry":{"type":"Point","coordinates":[-7.4641995,42.0636522,0]},"properties":{"nombre":"Albergue de peregrinos de Laza"}},
{"type":"Feature","geometry":{"type":"Point","coordinates":[-7.4452194,41.9406988,0]},"properties":{"nombre":"Casa Do Escudo. Casa do Asistente"}},
{"type":"Feature","geometry":{"type":"Point","coordinates":[-7.5978198,42.0142089,0]},"properties":{"nombre":"Albergue de peregrinos de Viladerrei"}},
{"type":"Feature","geometry":{"type":"Point","coordinates":[-7.7310902,42.0636995,0]},"properties":{"nombre":"Albergue de peregrinos de Xinzo de Limia"}},
{"type":"Feature","geometry":{"type":"Point","coordinates":[-7.7603921,42.108528,0]},"properties":{"nombre":"Albergue de peregrinos de Sandias"}},
{"type":"Feature","geometry":{"type":"Point","coordinates":[-7.8007436,42.1902948,0]},"properties":{"nombre":"Albergue Allariz"}},
{"type":"Feature","geometry":{"type":"Point","coordinates":[-7.5536129,42.1218717,0]},"properties":{"nombre":"Albergue El rincón del peregrino"}},
{"type":"Feature","geometry":{"type":"Point","coordinates":[-7.6116951,42.1610691,0]},"properties":{"nombre":"Albergue de peregrinos de Vilar de Barrio"}},
{"type":"Feature","geometry":{"type":"Point","coordinates":[-7.7326949,42.2017493,0]},"properties":{"nombre":"Albergue de peregrinos de Xunqueira de Ambía"}},
{"type":"Feature","geometry":{"type":"Point","coordinates":[-7.7372092,42.2047557,0]},"properties":{"nombre":"Albergue turístico Casa Tomás"}},
{"type":"Feature","geometry":{"type":"Point","coordinates":[-7.8663948,42.3350518,0]},"properties":{"nombre":"Albergue de peregrinos de Ourense"}},
{"type":"Feature","geometry":{"type":"Point","coordinates":[-7.988729,42.4733714,0]},"properties":{"nombre":"Albergue de peregrinos de Cea–Casa das Netas"}},
{"type":"Feature","geometry":{"type":"Point","coordinates":[-8.1655948,42.676256,0]},"properties":{"nombre":"Albergue de peregrinos de A Laxe"}},
{"type":"Feature","geometry":{"type":"Point","coordinates":[-8.2487321,42.696279,0]},"properties":{"nombre":"Albergue Santa Olaia"}},
{"type":"Feature","geometry":{"type":"Point","coordinates":[-8.2470132,42.6995706,0]},"properties":{"nombre":"Albergue turístico Silleda (La casa del peregrino)"}},
{"type":"Feature","geometry":{"type":"Point","coordinates":[-8.2475484,42.7003872,0]},"properties":{"nombre":"El gran albergue del peregrino"}},
{"type":"Feature","geometry":{"type":"Point","coordinates":[-8.303217,42.731539,0]},"properties":{"nombre":"Albergue de peregrinos de Bandeira"}},
{"type":"Feature","geometry":{"type":"Point","coordinates":[-8.337554223226,42.754573193034,0]},"properties":{"nombre":"Albergue–Cafetería Casa Leiras 1866"}},
{"type":"Feature","geometry":{"type":"Point","coordinates":[-8.4078448,42.7777184,0]},"properties":{"nombre":"Albergue O Cruceiro da Ulla"}},
{"type":"Feature","geometry":{"type":"Point","coordinates":[-8.4365623,42.7915236,0]},"properties":{"nombre":"Albergue de peregrinos de Vedra (Outeiro)"}},
{"type":"Feature","geometry":{"type":"Point","coordinates":[-8.4845089,42.8185,0]},"properties":{"nombre":"Albergue Reina Lupa"}}
]}